$GPGGA,000445.102,3859.0335,N,07731.9688,W,1,6,1.37,113.3,M,-33.4,M,,*6E
$GPRMC,000445.102,A,3859.0335,N,07731.9688,W,0.09,229.39,130512,,,A*78
$GPGGA,000445.102,3859.0335,N,07731.9688,W,1,6,1.37,113.3,M,-33.4,M,,*6E
$GPRMC,000445.102,A,3859.0335,N,07731.9688,W,0.09,229.39,130512,,,A*78
$GPGGA,000445.102,3859.0335,N,07731.9688,W,1,6,1.37,113.3,M,-33.4,M,,*6E
$GPRMC,000445.102,A,3859.0335,N,07731.9688,W,0.09,229.39,130512,,,A*78
$GPGGA,000445.102,3859.0335,N,07731.9688,W,1,6,1.37,113.3,M,-33.4,M,,*6E
$GPRMC,000445.102,A,3859.0335,N,07731.9688,W,0.09,229.39,130512,,,A*78
$GPGGA,000445.102,3859.0335,N,07731.9688,W,1,6,1.37,113.3,M,-33.4,M,,*6E
$GPRMC,000445.102,A,3859.0335,N,07731.9688,W,0.09,229.39,130512,,,A*78
$GPGGA,000445.102,3859.0335,N,07731.9688,W,1,6,1.37,113.3,M,-33.4,M,,*6E
$GPRMC,000445.102,A,3859.0335,N,07731.9688,W,0.09,229.39,130512,,,A*78
$GPGGA,000445.102,3859.0335,N,07731.9688,W,1,6,1.37,113.3,M,-33.4,M,,*6E
$GPRMC,000445.102,A,3859.0335,N,07731.9688,W,0.09,229.39,130512,,,A*78
$GPGGA,000445.102,3859.0335,N,07731.9688,W,1,6,1.37,113.3,M,-33.4,M,,*6E
$GPRMC,000445.102,A,3859.0335,N,07731.9688,W,0.09,229.39,130512,,,A*78
$GPGGA,000445.102,3859.0335,N,07731.9688,W,1,6,1.37,113.3,M,-33.4,M,,*6E
$GPRMC,000445.102,A,3859.0335,N,07731.9688,W,0.09,229.39,130512,,,A*78
$GPGGA,000445.102,3859.0335,N,07731.9688,W,1,6,1.37,113.3,M,-33.4,M,,*6E
$GPRMC,000445.102,A,3859.0335,N,07731.9688,W,0.09,229.39,130512,,,A*78
$GPGGA,000445.102,3859.0335,N,07731.9688,W,1,6,1.37,113.3,M,-33.4,M,,*6E
$GPRMC,000445.102,A,3859.0335,N,07731.9688,W,0.09,229.39,130512,,,A*78
$GPGGA,000445.102,3859.0335,N,07731.9688,W,1,6,1.37,113.3,M,-33.4,M,,*6E
$GPRMC,000445.102,A,3859.0335,N,07731.9688,W,0.09,229.39,130512,,,A*78
$GPGGA,000445.102,3859.0335,N,07731.9688,W,1,6,1.37,113.3,M,-33.4,M,,*6E
$GPRMC,000445.102,A,3859.0335,N,07731.9688,W,0.09,229.39,130512,,,A*78
$GPGGA,000445.102,3859.0335,N,07731.9688,W,1,6,1.37,113.3,M,-33.4,M,,*6E
$GPRMC,000445.102,A,3859.0335,N,07731.9688,W,0.09,229.39,130512,,,A*78
$GPGGA,000445.102,3859.0335,N,07731.9688,W,1,6,1.37,113.3,M,-33.4,M,,*6E
$GPRMC,000445.102,A,3859.0335,N,07731.9688,W,0.09,229.39,130512,,,A*78
$GPGGA,000445.102,3859.0335,N,07731.9688,W,1,6,1.37,113.3,M,-33.4,M,,*6E
$GPRMC,000445.102,A,3859.0335,N,07731.9688,W,0.09,229.39,130512,,,A*78
$GPGGA,000445.102,3859.0335,N,07731.9688,W,1,6,1.37,113.3,M,-33.4,M,,*6E
$GPRMC,000445.102,A,3859.0335,N,07731.9688,W,0.09,229.39,130512,,,A*78
$GPGGA,000445.102,3859.0335,N,07731.9688,W,1,6,1.37,113.3,M,-33.4,M,,*6E
$GPRMC,000445.102,A,3859.0335,N,07731.9688,W,0.09,229.39,130512,,,A*78
$GPGGA,000445.102,3859.0335,N,07731.9688,W,1,6,1.37,113.3,M,-33.4,M,,*6E
$GPRMC,000445.102,A,3859.0335,N,07731.9688,W,0.09,229.39,130512,,,A*78
$GPGGA,000445.102,3859.0335,N,07731.9688,W,1,6,1.37,113.3,M,-33.4,M,,*6E
$GPRMC,000445.102,A,3859.0335,N,07731.9688,W,0.09,229.39,130512,,,A*78
$GPGGA,000445.102,3858.7716199999998,N,7732.4655200000004,W,1,6,1.37,113.3,M,-33.4,M,,*6E
$GPRMC,000445.102,A,3858.7716199999998,N,7732.4655200000004,W,0.09,229.39,130512,,,A*78
$GPGGA,000445.203,3858.7729399999999,N,7732.4655200000004,W,1,6,1.37,113.3,M,-33.4,M,,*6E
$GPRMC,000445.203,A,3858.7729399999999,N,7732.4655200000004,W,0.09,229.39,130512,,,A*78
$GPGGA,000445.297,3858.7743199999998,N,7732.4655200000004,W,1,6,1.37,113.3,M,-33.4,M,,*6E
$GPRMC,000445.297,A,3858.7743199999998,N,7732.4655200000004,W,0.09,229.39,130512,,,A*78
$GPGGA,000445.398,3858.77546,N,7732.4655200000004,W,1,6,1.37,113.3,M,-33.4,M,,*6E
$GPRMC,000445.398,A,3858.77546,N,7732.4655200000004,W,0.09,229.39,130512,,,A*78
$GPGGA,000445.508,3858.7768399999999,N,7732.4655200000004,W,1,6,1.37,113.3,M,-33.4,M,,*6E
$GPRMC,000445.508,A,3858.7768399999999,N,7732.4655200000004,W,0.09,229.39,130512,,,A*78
$GPGGA,000445.602,3858.77798,N,7732.4655200000004,W,1,6,1.37,113.3,M,-33.4,M,,*6E
$GPRMC,000445.602,A,3858.77798,N,7732.4655200000004,W,0.09,229.39,130512,,,A*78
$GPGGA,000445.695,3858.7793599999999,N,7732.4655200000004,W,1,6,1.37,113.3,M,-33.4,M,,*6E
$GPRMC,000445.695,A,3858.7793599999999,N,7732.4655200000004,W,0.09,229.39,130512,,,A*78
$GPGGA,000445.797,3858.7805,N,7732.4650399999999,W,1,6,1.37,113.3,M,-33.4,M,,*6E
$GPRMC,000445.797,A,3858.7805,N,7732.4650399999999,W,0.09,229.39,130512,,,A*78
$GPGGA,000445.906,3858.7818799999999,N,7732.4650399999999,W,1,6,1.37,113.3,M,-33.4,M,,*6E
$GPRMC,000445.906,A,3858.7818799999999,N,7732.4650399999999,W,0.09,229.39,130512,,,A*78
$GPGGA,000446.000,3858.7832599999999,N,7732.4650399999999,W,1,6,1.37,113.3,M,-33.4,M,,*6E
$GPRMC,000446.000,A,3858.7832599999999,N,7732.4650399999999,W,0.09,229.39,130512,,,A*78
$GPGGA,000446.094,3858.7844,N,7732.4650399999999,W,1,6,1.37,113.3,M,-33.4,M,,*6E
$GPRMC,000446.094,A,3858.7844,N,7732.4650399999999,W,0.09,229.39,130512,,,A*78
$GPGGA,000446.203,3858.7857799999999,N,7732.4650399999999,W,1,6,1.37,113.3,M,-33.4,M,,*6E
$GPRMC,000446.203,A,3858.7857799999999,N,7732.4650399999999,W,0.09,229.39,130512,,,A*78
$GPGGA,000446.305,3858.78692,N,7732.4646200000001,W,1,6,1.37,113.3,M,-33.4,M,,*6E
$GPRMC,000446.305,A,3858.78692,N,7732.4646200000001,W,0.09,229.39,130512,,,A*78
$GPGGA,000446.398,3858.7882999999999,N,7732.4646200000001,W,1,6,1.37,113.3,M,-33.4,M,,*6E
$GPRMC,000446.398,A,3858.7882999999999,N,7732.4646200000001,W,0.09,229.39,130512,,,A*78
$GPGGA,000446.492,3858.7896799999999,N,7732.4646200000001,W,1,6,1.37,113.3,M,-33.4,M,,*6E
$GPRMC,000446.492,A,3858.7896799999999,N,7732.4646200000001,W,0.09,229.39,130512,,,A*78
$GPGGA,000446.602,3858.79082,N,7732.4646200000001,W,1,6,1.37,113.3,M,-33.4,M,,*6E
$GPRMC,000446.602,A,3858.79082,N,7732.4646200000001,W,0.09,229.39,130512,,,A*78
$GPGGA,000446.703,3858.7921999999999,N,7732.4641399999996,W,1,6,1.37,113.3,M,-33.4,M,,*6E
$GPRMC,000446.703,A,3858.7921999999999,N,7732.4641399999996,W,0.09,229.39,130512,,,A*78
$GPGGA,000446.797,3858.79334,N,7732.4641399999996,W,1,6,1.37,113.3,M,-33.4,M,,*6E
$GPRMC,000446.797,A,3858.79334,N,7732.4641399999996,W,0.09,229.39,130512,,,A*78
$GPGGA,000446.844,3858.7938200000001,N,7732.4641399999996,W,1,6,1.37,113.3,M,-33.4,M,,*6E
$GPRMC,000446.844,A,3858.7938200000001,N,7732.4641399999996,W,0.09,229.39,130512,,,A*78
$GPGGA,000446.844,3858.7938200000001,N,7732.4641399999996,W,1,6,1.37,113.3,M,-33.4,M,,*6E
$GPRMC,000446.844,A,3858.7938200000001,N,7732.4641399999996,W,0.09,229.39,130512,,,A*78
$GPGGA,000446.898,3858.7947199999999,N,7732.4641399999996,W,1,6,1.37,113.3,M,-33.4,M,,*6E
$GPRMC,000446.898,A,3858.7947199999999,N,7732.4641399999996,W,0.09,229.39,130512,,,A*78
$GPGGA,000447.000,3858.7960999999999,N,7732.4636599999999,W,1,6,1.37,113.3,M,-33.4,M,,*6E
$GPRMC,000447.000,A,3858.7960999999999,N,7732.4636599999999,W,0.09,229.39,130512,,,A*78
$GPGGA,000447.102,3858.79724,N,7732.4636599999999,W,1,6,1.37,113.3,M,-33.4,M,,*6E
$GPRMC,000447.102,A,3858.79724,N,7732.4636599999999,W,0.09,229.39,130512,,,A*78
$GPGGA,000447.203,3858.7986199999999,N,7732.4636599999999,W,1,6,1.37,113.3,M,-33.4,M,,*6E
$GPRMC,000447.203,A,3858.7986199999999,N,7732.4636599999999,W,0.09,229.39,130512,,,A*78
$GPGGA,000447.297,3858.79976,N,7732.4636599999999,W,1,6,1.37,113.3,M,-33.4,M,,*6E
$GPRMC,000447.297,A,3858.79976,N,7732.4636599999999,W,0.09,229.39,130512,,,A*78
$GPGGA,000447.398,3858.8009000000001,N,7732.4632400000002,W,1,6,1.37,113.3,M,-33.4,M,,*6E
$GPRMC,000447.398,A,3858.8009000000001,N,7732.4632400000002,W,0.09,229.39,130512,,,A*78
$GPGGA,000447.508,3858.80228,N,7732.4632400000002,W,1,6,1.37,113.3,M,-33.4,M,,*6E
$GPRMC,000447.508,A,3858.80228,N,7732.4632400000002,W,0.09,229.39,130512,,,A*78
$GPGGA,000447.602,3858.8034200000001,N,7732.4632400000002,W,1,6,1.37,113.3,M,-33.4,M,,*6E
$GPRMC,000447.602,A,3858.8034200000001,N,7732.4632400000002,W,0.09,229.39,130512,,,A*78
$GPGGA,000447.695,3858.8048000000001,N,7732.4627599999997,W,1,6,1.37,113.3,M,-33.4,M,,*6E
$GPRMC,000447.695,A,3858.8048000000001,N,7732.4627599999997,W,0.09,229.39,130512,,,A*78
$GPGGA,000447.797,3858.8059400000002,N,7732.4627599999997,W,1,6,1.37,113.3,M,-33.4,M,,*6E
$GPRMC,000447.797,A,3858.8059400000002,N,7732.4627599999997,W,0.09,229.39,130512,,,A*78
$GPGGA,000447.906,3858.8073200000001,N,7732.4623399999999,W,1,6,1.37,113.3,M,-33.4,M,,*6E
$GPRMC,000447.906,A,3858.8073200000001,N,7732.4623399999999,W,0.09,229.39,130512,,,A*78
$GPGGA,000448.000,3858.8087,N,7732.4623399999999,W,1,6,1.37,113.3,M,-33.4,M,,*6E
$GPRMC,000448.000,A,3858.8087,N,7732.4623399999999,W,0.09,229.39,130512,,,A*78
$GPGGA,000448.094,3858.8098400000001,N,7732.4623399999999,W,1,6,1.37,113.3,M,-33.4,M,,*6E
$GPRMC,000448.094,A,3858.8098400000001,N,7732.4623399999999,W,0.09,229.39,130512,,,A*78
$GPGGA,000448.203,3858.8111600000002,N,7732.4618600000002,W,1,6,1.37,113.3,M,-33.4,M,,*6E
$GPRMC,000448.203,A,3858.8111600000002,N,7732.4618600000002,W,0.09,229.39,130512,,,A*78
$GPGGA,000448.305,3858.8123600000002,N,7732.4613799999997,W,1,6,1.37,113.3,M,-33.4,M,,*6E
$GPRMC,000448.305,A,3858.8123600000002,N,7732.4613799999997,W,0.09,229.39,130512,,,A*78
$GPGGA,000448.398,3858.8136799999998,N,7732.4613799999997,W,1,6,1.37,113.3,M,-33.4,M,,*6E
$GPRMC,000448.398,A,3858.8136799999998,N,7732.4613799999997,W,0.09,229.39,130512,,,A*78
$GPGGA,000448.492,3858.8150600000002,N,7732.4609599999999,W,1,6,1.37,113.3,M,-33.4,M,,*6E
$GPRMC,000448.492,A,3858.8150600000002,N,7732.4609599999999,W,0.09,229.39,130512,,,A*78
$GPGGA,000448.602,3858.8161999999998,N,7732.4609599999999,W,1,6,1.37,113.3,M,-33.4,M,,*6E
$GPRMC,000448.602,A,3858.8161999999998,N,7732.4609599999999,W,0.09,229.39,130512,,,A*78
$GPGGA,000448.703,3858.8175800000002,N,7732.4604800000003,W,1,6,1.37,113.3,M,-33.4,M,,*6E
$GPRMC,000448.703,A,3858.8175800000002,N,7732.4604800000003,W,0.09,229.39,130512,,,A*78
$GPGGA,000448.797,3858.8187199999999,N,7732.4604800000003,W,1,6,1.37,113.3,M,-33.4,M,,*6E
$GPRMC,000448.797,A,3858.8187199999999,N,7732.4604800000003,W,0.09,229.39,130512,,,A*78
$GPGGA,000448.898,3858.8200999999998,N,7732.4599999999998,W,1,6,1.37,113.3,M,-33.4,M,,*6E
$GPRMC,000448.898,A,3858.8200999999998,N,7732.4599999999998,W,0.09,229.39,130512,,,A*78
$GPGGA,000449.000,3858.8212399999999,N,7732.4599999999998,W,1,6,1.37,113.3,M,-33.4,M,,*6E
$GPRMC,000449.000,A,3858.8212399999999,N,7732.4599999999998,W,0.09,229.39,130512,,,A*78
$GPGGA,000449.102,3858.8226199999998,N,7732.4599999999998,W,1,6,1.37,113.3,M,-33.4,M,,*6E
$GPRMC,000449.102,A,3858.8226199999998,N,7732.4599999999998,W,0.09,229.39,130512,,,A*78
$GPGGA,000449.203,3858.8240000000002,N,7732.45958,W,1,6,1.37,113.3,M,-33.4,M,,*6E
$GPRMC,000449.203,A,3858.8240000000002,N,7732.45958,W,0.09,229.39,130512,,,A*78
$GPGGA,000449.297,3858.8251399999999,N,7732.45958,W,1,6,1.37,113.3,M,-33.4,M,,*6E
$GPRMC,000449.297,A,3858.8251399999999,N,7732.45958,W,0.09,229.39,130512,,,A*78
$GPGGA,000449.398,3858.82628,N,7732.4591000000004,W,1,6,1.37,113.3,M,-33.4,M,,*6E
$GPRMC,000449.398,A,3858.82628,N,7732.4591000000004,W,0.09,229.39,130512,,,A*78
$GPGGA,000449.508,3858.8276599999999,N,7732.4591000000004,W,1,6,1.37,113.3,M,-33.4,M,,*6E
$GPRMC,000449.508,A,3858.8276599999999,N,7732.4591000000004,W,0.09,229.39,130512,,,A*78
$GPGGA,000449.602,3858.8288,N,7732.4586199999999,W,1,6,1.37,113.3,M,-33.4,M,,*6E
$GPRMC,000449.602,A,3858.8288,N,7732.4586199999999,W,0.09,229.39,130512,,,A*78
$GPGGA,000449.695,3858.8301799999999,N,7732.4586199999999,W,1,6,1.37,113.3,M,-33.4,M,,*6E
$GPRMC,000449.695,A,3858.8301799999999,N,7732.4586199999999,W,0.09,229.39,130512,,,A*78
$GPGGA,000449.797,3858.83132,N,7732.4582000000001,W,1,6,1.37,113.3,M,-33.4,M,,*6E
$GPRMC,000449.797,A,3858.83132,N,7732.4582000000001,W,0.09,229.39,130512,,,A*78
$GPGGA,000449.906,3858.8327,N,7732.4582000000001,W,1,6,1.37,113.3,M,-33.4,M,,*6E
$GPRMC,000449.906,A,3858.8327,N,7732.4582000000001,W,0.09,229.39,130512,,,A*78
$GPGGA,000450.000,3858.8338400000001,N,7732.4577199999996,W,1,6,1.37,113.3,M,-33.4,M,,*6E
$GPRMC,000450.000,A,3858.8338400000001,N,7732.4577199999996,W,0.09,229.39,130512,,,A*78
$GPGGA,000450.094,3858.8349800000002,N,7732.4572999999998,W,1,6,1.37,113.3,M,-33.4,M,,*6E
$GPRMC,000450.094,A,3858.8349800000002,N,7732.4572999999998,W,0.09,229.39,130512,,,A*78
$GPGGA,000450.203,3858.8361199999999,N,7732.4572999999998,W,1,6,1.37,113.3,M,-33.4,M,,*6E
$GPRMC,000450.203,A,3858.8361199999999,N,7732.4572999999998,W,0.09,229.39,130512,,,A*78
$GPGGA,000450.305,3858.8375000000002,N,7732.4568200000002,W,1,6,1.37,113.3,M,-33.4,M,,*6E
$GPRMC,000450.305,A,3858.8375000000002,N,7732.4568200000002,W,0.09,229.39,130512,,,A*78
$GPGGA,000450.398,3858.8386399999999,N,7732.4568200000002,W,1,6,1.37,113.3,M,-33.4,M,,*6E
$GPRMC,000450.398,A,3858.8386399999999,N,7732.4568200000002,W,0.09,229.39,130512,,,A*78
$GPGGA,000450.492,3858.83978,N,7732.4563399999997,W,1,6,1.37,113.3,M,-33.4,M,,*6E
$GPRMC,000450.492,A,3858.83978,N,7732.4563399999997,W,0.09,229.39,130512,,,A*78
$GPGGA,000450.602,3858.8411599999999,N,7732.4559199999999,W,1,6,1.37,113.3,M,-33.4,M,,*6E
$GPRMC,000450.602,A,3858.8411599999999,N,7732.4559199999999,W,0.09,229.39,130512,,,A*78
$GPGGA,000450.703,3858.8423,N,7732.4559199999999,W,1,6,1.37,113.3,M,-33.4,M,,*6E
$GPRMC,000450.703,A,3858.8423,N,7732.4559199999999,W,0.09,229.39,130512,,,A*78
$GPGGA,000450.797,3858.8436799999999,N,7732.4554400000002,W,1,6,1.37,113.3,M,-33.4,M,,*6E
$GPRMC,000450.797,A,3858.8436799999999,N,7732.4554400000002,W,0.09,229.39,130512,,,A*78
$GPGGA,000450.898,3858.8448200000001,N,7732.4549599999997,W,1,6,1.37,113.3,M,-33.4,M,,*6E
$GPRMC,000450.898,A,3858.8448200000001,N,7732.4549599999997,W,0.09,229.39,130512,,,A*78
$GPGGA,000451.000,3858.8462,N,7732.45454,W,1,6,1.37,113.3,M,-33.4,M,,*6E
$GPRMC,000451.000,A,3858.8462,N,7732.45454,W,0.09,229.39,130512,,,A*78
$GPGGA,000451.102,3858.8473400000001,N,7732.45454,W,1,6,1.37,113.3,M,-33.4,M,,*6E
$GPRMC,000451.102,A,3858.8473400000001,N,7732.45454,W,0.09,229.39,130512,,,A*78
$GPGGA,000451.203,3858.8484800000002,N,7732.4540600000003,W,1,6,1.37,113.3,M,-33.4,M,,*6E
$GPRMC,000451.203,A,3858.8484800000002,N,7732.4540600000003,W,0.09,229.39,130512,,,A*78
$GPGGA,000451.297,3858.8496199999999,N,7732.4536399999997,W,1,6,1.37,113.3,M,-33.4,M,,*6E
$GPRMC,000451.297,A,3858.8496199999999,N,7732.4536399999997,W,0.09,229.39,130512,,,A*78
$GPGGA,000451.398,3858.8509999999998,N,7732.45316,W,1,6,1.37,113.3,M,-33.4,M,,*6E
$GPRMC,000451.398,A,3858.8509999999998,N,7732.45316,W,0.09,229.39,130512,,,A*78
$GPGGA,000451.508,3858.8521399999999,N,7732.4526800000004,W,1,6,1.37,113.3,M,-33.4,M,,*6E
$GPRMC,000451.508,A,3858.8521399999999,N,7732.4526800000004,W,0.09,229.39,130512,,,A*78
$GPGGA,000451.602,3858.85328,N,7732.4526800000004,W,1,6,1.37,113.3,M,-33.4,M,,*6E
$GPRMC,000451.602,A,3858.85328,N,7732.4526800000004,W,0.09,229.39,130512,,,A*78
$GPGGA,000451.695,3858.8546599999999,N,7732.4522599999997,W,1,6,1.37,113.3,M,-33.4,M,,*6E
$GPRMC,000451.695,A,3858.8546599999999,N,7732.4522599999997,W,0.09,229.39,130512,,,A*78
$GPGGA,000451.797,3858.8558,N,7732.4517800000001,W,1,6,1.37,113.3,M,-33.4,M,,*6E
$GPRMC,000451.797,A,3858.8558,N,7732.4517800000001,W,0.09,229.39,130512,,,A*78
$GPGGA,000451.906,3858.8569400000002,N,7732.4517800000001,W,1,6,1.37,113.3,M,-33.4,M,,*6E
$GPRMC,000451.906,A,3858.8569400000002,N,7732.4517800000001,W,0.09,229.39,130512,,,A*78
$GPGGA,000452.000,3858.8580799999998,N,7732.4512999999996,W,1,6,1.37,113.3,M,-33.4,M,,*6E
$GPRMC,000452.000,A,3858.8580799999998,N,7732.4512999999996,W,0.09,229.39,130512,,,A*78
$GPGGA,000452.094,3858.8592800000002,N,7732.4508799999998,W,1,6,1.37,113.3,M,-33.4,M,,*6E
$GPRMC,000452.094,A,3858.8592800000002,N,7732.4508799999998,W,0.09,229.39,130512,,,A*78
$GPGGA,000452.203,3858.8604199999999,N,7732.4504000000002,W,1,6,1.37,113.3,M,-33.4,M,,*6E
$GPRMC,000452.203,A,3858.8604199999999,N,7732.4504000000002,W,0.09,229.39,130512,,,A*78
$GPGGA,000452.305,3858.86156,N,7732.4504000000002,W,1,6,1.37,113.3,M,-33.4,M,,*6E
$GPRMC,000452.305,A,3858.86156,N,7732.4504000000002,W,0.09,229.39,130512,,,A*78
$GPGGA,000452.398,3858.8627000000001,N,7732.4499800000004,W,1,6,1.37,113.3,M,-33.4,M,,*6E
$GPRMC,000452.398,A,3858.8627000000001,N,7732.4499800000004,W,0.09,229.39,130512,,,A*78
$GPGGA,000452.492,3858.8638400000002,N,7732.4494999999999,W,1,6,1.37,113.3,M,-33.4,M,,*6E
$GPRMC,000452.492,A,3858.8638400000002,N,7732.4494999999999,W,0.09,229.39,130512,,,A*78
$GPGGA,000452.602,3858.8652200000001,N,7732.4490200000002,W,1,6,1.37,113.3,M,-33.4,M,,*6E
$GPRMC,000452.602,A,3858.8652200000001,N,7732.4490200000002,W,0.09,229.39,130512,,,A*78
$GPGGA,000452.703,3858.8663599999998,N,7732.4485999999996,W,1,6,1.37,113.3,M,-33.4,M,,*6E
$GPRMC,000452.703,A,3858.8663599999998,N,7732.4485999999996,W,0.09,229.39,130512,,,A*78
$GPGGA,000452.797,3858.8674999999999,N,7732.4485999999996,W,1,6,1.37,113.3,M,-33.4,M,,*6E
$GPRMC,000452.797,A,3858.8674999999999,N,7732.4485999999996,W,0.09,229.39,130512,,,A*78
$GPGGA,000452.898,3858.8684000000002,N,7732.44812,W,1,6,1.37,113.3,M,-33.4,M,,*6E
$GPRMC,000452.898,A,3858.8684000000002,N,7732.44812,W,0.09,229.39,130512,,,A*78
$GPGGA,000453.000,3858.8697800000001,N,7732.4476400000003,W,1,6,1.37,113.3,M,-33.4,M,,*6E
$GPRMC,000453.000,A,3858.8697800000001,N,7732.4476400000003,W,0.09,229.39,130512,,,A*78
$GPGGA,000453.102,3858.87068,N,7732.4472199999997,W,1,6,1.37,113.3,M,-33.4,M,,*6E
$GPRMC,000453.102,A,3858.87068,N,7732.4472199999997,W,0.09,229.39,130512,,,A*78
$GPGGA,000453.203,3858.8720599999999,N,7732.44674,W,1,6,1.37,113.3,M,-33.4,M,,*6E
$GPRMC,000453.203,A,3858.8720599999999,N,7732.44674,W,0.09,229.39,130512,,,A*78
$GPGGA,000453.297,3858.8729600000002,N,7732.4462600000004,W,1,6,1.37,113.3,M,-33.4,M,,*6E
$GPRMC,000453.297,A,3858.8729600000002,N,7732.4462600000004,W,0.09,229.39,130512,,,A*78
$GPGGA,000453.398,3858.8743400000001,N,7732.4462600000004,W,1,6,1.37,113.3,M,-33.4,M,,*6E
$GPRMC,000453.398,A,3858.8743400000001,N,7732.4462600000004,W,0.09,229.39,130512,,,A*78
$GPGGA,000453.508,3858.8754799999998,N,7732.4458399999997,W,1,6,1.37,113.3,M,-33.4,M,,*6E
$GPRMC,000453.508,A,3858.8754799999998,N,7732.4458399999997,W,0.09,229.39,130512,,,A*78
$GPGGA,000453.602,3858.8764399999999,N,7732.4453600000001,W,1,6,1.37,113.3,M,-33.4,M,,*6E
$GPRMC,000453.602,A,3858.8764399999999,N,7732.4453600000001,W,0.09,229.39,130512,,,A*78
$GPGGA,000453.695,3858.8778199999999,N,7732.4449400000003,W,1,6,1.37,113.3,M,-33.4,M,,*6E
$GPRMC,000453.695,A,3858.8778199999999,N,7732.4449400000003,W,0.09,229.39,130512,,,A*78
$GPGGA,000453.797,3858.8787200000002,N,7732.4444599999998,W,1,6,1.37,113.3,M,-33.4,M,,*6E
$GPRMC,000453.797,A,3858.8787200000002,N,7732.4444599999998,W,0.09,229.39,130512,,,A*78
$GPGGA,000453.906,3858.8801000000001,N,7732.4439800000002,W,1,6,1.37,113.3,M,-33.4,M,,*6E
$GPRMC,000453.906,A,3858.8801000000001,N,7732.4439800000002,W,0.09,229.39,130512,,,A*78
$GPGGA,000454.000,3858.8809999999999,N,7732.4439800000002,W,1,6,1.37,113.3,M,-33.4,M,,*6E
$GPRMC,000454.000,A,3858.8809999999999,N,7732.4439800000002,W,0.09,229.39,130512,,,A*78
$GPGGA,000454.094,3858.88214,N,7732.4435600000004,W,1,6,1.37,113.3,M,-33.4,M,,*6E
$GPRMC,000454.094,A,3858.88214,N,7732.4435600000004,W,0.09,229.39,130512,,,A*78
$GPGGA,000454.203,3858.88352,N,7732.4430799999999,W,1,6,1.37,113.3,M,-33.4,M,,*6E
$GPRMC,000454.203,A,3858.88352,N,7732.4430799999999,W,0.09,229.39,130512,,,A*78
$GPGGA,000454.305,3858.8844199999998,N,7732.4426000000003,W,1,6,1.37,113.3,M,-33.4,M,,*6E
$GPRMC,000454.305,A,3858.8844199999998,N,7732.4426000000003,W,0.09,229.39,130512,,,A*78
$GPGGA,000454.398,3858.8858000000002,N,7732.4421799999996,W,1,6,1.37,113.3,M,-33.4,M,,*6E
$GPRMC,000454.398,A,3858.8858000000002,N,7732.4421799999996,W,0.09,229.39,130512,,,A*78
$GPGGA,000454.492,3858.8867,N,7732.4417,W,1,6,1.37,113.3,M,-33.4,M,,*6E
$GPRMC,000454.492,A,3858.8867,N,7732.4417,W,0.09,229.39,130512,,,A*78
$GPGGA,000454.602,3858.8878400000002,N,7732.4417,W,1,6,1.37,113.3,M,-33.4,M,,*6E
$GPRMC,000454.602,A,3858.8878400000002,N,7732.4417,W,0.09,229.39,130512,,,A*78
$GPGGA,000454.703,3858.8889799999998,N,7732.4412800000002,W,1,6,1.37,113.3,M,-33.4,M,,*6E
$GPRMC,000454.703,A,3858.8889799999998,N,7732.4412800000002,W,0.09,229.39,130512,,,A*78
$GPGGA,000454.797,3858.8901799999998,N,7732.4407999999997,W,1,6,1.37,113.3,M,-33.4,M,,*6E
$GPRMC,000454.797,A,3858.8901799999998,N,7732.4407999999997,W,0.09,229.39,130512,,,A*78
$GPGGA,000454.898,3858.8913199999999,N,7732.44032,W,1,6,1.37,113.3,M,-33.4,M,,*6E
$GPRMC,000454.898,A,3858.8913199999999,N,7732.44032,W,0.09,229.39,130512,,,A*78
$GPGGA,000455.000,3858.89246,N,7732.4399000000003,W,1,6,1.37,113.3,M,-33.4,M,,*6E
$GPRMC,000455.000,A,3858.89246,N,7732.4399000000003,W,0.09,229.39,130512,,,A*78
$GPGGA,000455.102,3858.8936000000001,N,7732.4394199999998,W,1,6,1.37,113.3,M,-33.4,M,,*6E
$GPRMC,000455.102,A,3858.8936000000001,N,7732.4394199999998,W,0.09,229.39,130512,,,A*78
$GPGGA,000455.203,3858.8945,N,7732.4389400000001,W,1,6,1.37,113.3,M,-33.4,M,,*6E
$GPRMC,000455.203,A,3858.8945,N,7732.4389400000001,W,0.09,229.39,130512,,,A*78
$GPGGA,000455.297,3858.8956400000001,N,7732.4385200000003,W,1,6,1.37,113.3,M,-33.4,M,,*6E
$GPRMC,000455.297,A,3858.8956400000001,N,7732.4385200000003,W,0.09,229.39,130512,,,A*78
$GPGGA,000455.398,3858.8967800000002,N,7732.4380399999998,W,1,6,1.37,113.3,M,-33.4,M,,*6E
$GPRMC,000455.398,A,3858.8967800000002,N,7732.4380399999998,W,0.09,229.39,130512,,,A*78
$GPGGA,000455.508,3858.89768,N,7732.43762,W,1,6,1.37,113.3,M,-33.4,M,,*6E
$GPRMC,000455.508,A,3858.89768,N,7732.43762,W,0.09,229.39,130512,,,A*78
$GPGGA,000455.602,3858.8988200000001,N,7732.43762,W,1,6,1.37,113.3,M,-33.4,M,,*6E
$GPRMC,000455.602,A,3858.8988200000001,N,7732.43762,W,0.09,229.39,130512,,,A*78
$GPGGA,000455.695,3858.9000200000001,N,7732.4366599999999,W,1,6,1.37,113.3,M,-33.4,M,,*6E
$GPRMC,000455.695,A,3858.9000200000001,N,7732.4366599999999,W,0.09,229.39,130512,,,A*78
$GPGGA,000455.797,3858.90092,N,7732.4366599999999,W,1,6,1.37,113.3,M,-33.4,M,,*6E
$GPRMC,000455.797,A,3858.90092,N,7732.4366599999999,W,0.09,229.39,130512,,,A*78
$GPGGA,000455.906,3858.9020600000001,N,7732.4362400000001,W,1,6,1.37,113.3,M,-33.4,M,,*6E
$GPRMC,000455.906,A,3858.9020600000001,N,7732.4362400000001,W,0.09,229.39,130512,,,A*78
$GPGGA,000456.000,3858.9032000000002,N,7732.4357599999996,W,1,6,1.37,113.3,M,-33.4,M,,*6E
$GPRMC,000456.000,A,3858.9032000000002,N,7732.4357599999996,W,0.09,229.39,130512,,,A*78
$GPGGA,000456.094,3858.9043399999998,N,7732.43528,W,1,6,1.37,113.3,M,-33.4,M,,*6E
$GPRMC,000456.094,A,3858.9043399999998,N,7732.43528,W,0.09,229.39,130512,,,A*78
$GPGGA,000456.203,3858.90548,N,7732.4348600000002,W,1,6,1.37,113.3,M,-33.4,M,,*6E
$GPRMC,000456.203,A,3858.90548,N,7732.4348600000002,W,0.09,229.39,130512,,,A*78
$GPGGA,000456.305,3858.9063799999998,N,7732.4343799999997,W,1,6,1.37,113.3,M,-33.4,M,,*6E
$GPRMC,000456.305,A,3858.9063799999998,N,7732.4343799999997,W,0.09,229.39,130512,,,A*78
$GPGGA,000456.398,3858.9075199999999,N,7732.4334800000003,W,1,6,1.37,113.3,M,-33.4,M,,*6E
$GPRMC,000456.398,A,3858.9075199999999,N,7732.4334800000003,W,0.09,229.39,130512,,,A*78
$GPGGA,000456.492,3858.9087199999999,N,7732.4329999999998,W,1,6,1.37,113.3,M,-33.4,M,,*6E
$GPRMC,000456.492,A,3858.9087199999999,N,7732.4329999999998,W,0.09,229.39,130512,,,A*78
$GPGGA,000456.602,3858.9096200000002,N,7732.4329999999998,W,1,6,1.37,113.3,M,-33.4,M,,*6E
$GPRMC,000456.602,A,3858.9096200000002,N,7732.4329999999998,W,0.09,229.39,130512,,,A*78
$GPGGA,000456.703,3858.9107599999998,N,7732.4321000000003,W,1,6,1.37,113.3,M,-33.4,M,,*6E
$GPRMC,000456.703,A,3858.9107599999998,N,7732.4321000000003,W,0.09,229.39,130512,,,A*78
$GPGGA,000456.797,3858.9118999999999,N,7732.4316199999998,W,1,6,1.37,113.3,M,-33.4,M,,*6E
$GPRMC,000456.797,A,3858.9118999999999,N,7732.4316199999998,W,0.09,229.39,130512,,,A*78
$GPGGA,000456.898,3858.9130400000001,N,7732.4312,W,1,6,1.37,113.3,M,-33.4,M,,*6E
$GPRMC,000456.898,A,3858.9130400000001,N,7732.4312,W,0.09,229.39,130512,,,A*78
$GPGGA,000457.000,3858.9141800000002,N,7732.4307200000004,W,1,6,1.37,113.3,M,-33.4,M,,*6E
$GPRMC,000457.000,A,3858.9141800000002,N,7732.4307200000004,W,0.09,229.39,130512,,,A*78
$GPGGA,000457.102,3858.91508,N,7732.4302399999999,W,1,6,1.37,113.3,M,-33.4,M,,*6E
$GPRMC,000457.102,A,3858.91508,N,7732.4302399999999,W,0.09,229.39,130512,,,A*78
$GPGGA,000457.203,3858.9162200000001,N,7732.4298200000001,W,1,6,1.37,113.3,M,-33.4,M,,*6E
$GPRMC,000457.203,A,3858.9162200000001,N,7732.4298200000001,W,0.09,229.39,130512,,,A*78
$GPGGA,000457.297,3858.9173599999998,N,7732.4293399999996,W,1,6,1.37,113.3,M,-33.4,M,,*6E
$GPRMC,000457.297,A,3858.9173599999998,N,7732.4293399999996,W,0.09,229.39,130512,,,A*78
$GPGGA,000457.398,3858.9183199999999,N,7732.4284400000002,W,1,6,1.37,113.3,M,-33.4,M,,*6E
$GPRMC,000457.398,A,3858.9183199999999,N,7732.4284400000002,W,0.09,229.39,130512,,,A*78
$GPGGA,000457.508,3858.91946,N,7732.4279599999997,W,1,6,1.37,113.3,M,-33.4,M,,*6E
$GPRMC,000457.508,A,3858.91946,N,7732.4279599999997,W,0.09,229.39,130512,,,A*78
$GPGGA,000457.602,3858.9206000000001,N,7732.4275399999999,W,1,6,1.37,113.3,M,-33.4,M,,*6E
$GPRMC,000457.602,A,3858.9206000000001,N,7732.4275399999999,W,0.09,229.39,130512,,,A*78
$GPGGA,000457.695,3858.9215,N,7732.4270600000003,W,1,6,1.37,113.3,M,-33.4,M,,*6E
$GPRMC,000457.695,A,3858.9215,N,7732.4270600000003,W,0.09,229.39,130512,,,A*78
$GPGGA,000457.797,3858.9226400000001,N,7732.42616,W,1,6,1.37,113.3,M,-33.4,M,,*6E
$GPRMC,000457.797,A,3858.9226400000001,N,7732.42616,W,0.09,229.39,130512,,,A*78
$GPGGA,000457.906,3858.9237799999998,N,7732.4256800000003,W,1,6,1.37,113.3,M,-33.4,M,,*6E
$GPRMC,000457.906,A,3858.9237799999998,N,7732.4256800000003,W,0.09,229.39,130512,,,A*78
$GPGGA,000458.000,3858.9247399999999,N,7732.4252599999997,W,1,6,1.37,113.3,M,-33.4,M,,*6E
$GPRMC,000458.000,A,3858.9247399999999,N,7732.4252599999997,W,0.09,229.39,130512,,,A*78
$GPGGA,000458.094,3858.92588,N,7732.4247800000001,W,1,6,1.37,113.3,M,-33.4,M,,*6E
$GPRMC,000458.094,A,3858.92588,N,7732.4247800000001,W,0.09,229.39,130512,,,A*78
$GPGGA,000458.203,3858.9270200000001,N,7732.4238799999998,W,1,6,1.37,113.3,M,-33.4,M,,*6E
$GPRMC,000458.203,A,3858.9270200000001,N,7732.4238799999998,W,0.09,229.39,130512,,,A*78
$GPGGA,000458.305,3858.9281599999998,N,7732.4234000000001,W,1,6,1.37,113.3,M,-33.4,M,,*6E
$GPRMC,000458.305,A,3858.9281599999998,N,7732.4234000000001,W,0.09,229.39,130512,,,A*78
$GPGGA,000458.398,3858.9292999999999,N,7732.4229199999996,W,1,6,1.37,113.3,M,-33.4,M,,*6E
$GPRMC,000458.398,A,3858.9292999999999,N,7732.4229199999996,W,0.09,229.39,130512,,,A*78
$GPGGA,000458.492,3858.9302000000002,N,7732.4220200000002,W,1,6,1.37,113.3,M,-33.4,M,,*6E
$GPRMC,000458.492,A,3858.9302000000002,N,7732.4220200000002,W,0.09,229.39,130512,,,A*78
$GPGGA,000458.602,3858.9313399999999,N,7732.4215399999997,W,1,6,1.37,113.3,M,-33.4,M,,*6E
$GPRMC,000458.602,A,3858.9313399999999,N,7732.4215399999997,W,0.09,229.39,130512,,,A*78
$GPGGA,000458.703,3858.93248,N,7732.4211199999999,W,1,6,1.37,113.3,M,-33.4,M,,*6E
$GPRMC,000458.703,A,3858.93248,N,7732.4211199999999,W,0.09,229.39,130512,,,A*78
$GPGGA,000458.797,3858.9336200000001,N,7732.4202199999996,W,1,6,1.37,113.3,M,-33.4,M,,*6E
$GPRMC,000458.797,A,3858.9336200000001,N,7732.4202199999996,W,0.09,229.39,130512,,,A*78
$GPGGA,000458.898,3858.9347600000002,N,7732.41974,W,1,6,1.37,113.3,M,-33.4,M,,*6E
$GPRMC,000458.898,A,3858.9347600000002,N,7732.41974,W,0.09,229.39,130512,,,A*78
$GPGGA,000459.000,3858.9358999999999,N,7732.4192600000003,W,1,6,1.37,113.3,M,-33.4,M,,*6E
$GPRMC,000459.000,A,3858.9358999999999,N,7732.4192600000003,W,0.09,229.39,130512,,,A*78
$GPGGA,000459.102,3858.9370999999998,N,7732.4183600000001,W,1,6,1.37,113.3,M,-33.4,M,,*6E
$GPRMC,000459.102,A,3858.9370999999998,N,7732.4183600000001,W,0.09,229.39,130512,,,A*78
$GPGGA,000459.203,3858.9380000000001,N,7732.4178800000004,W,1,6,1.37,113.3,M,-33.4,M,,*6E
$GPRMC,000459.203,A,3858.9380000000001,N,7732.4178800000004,W,0.09,229.39,130512,,,A*78
$GPGGA,000459.297,3858.9391399999998,N,7732.4169800000001,W,1,6,1.37,113.3,M,-33.4,M,,*6E
$GPRMC,000459.297,A,3858.9391399999998,N,7732.4169800000001,W,0.09,229.39,130512,,,A*78
$GPGGA,000459.398,3858.9402799999999,N,7732.4165600000003,W,1,6,1.37,113.3,M,-33.4,M,,*6E
$GPRMC,000459.398,A,3858.9402799999999,N,7732.4165600000003,W,0.09,229.39,130512,,,A*78
$GPGGA,000459.508,3858.94142,N,7732.4156000000002,W,1,6,1.37,113.3,M,-33.4,M,,*6E
$GPRMC,000459.508,A,3858.94142,N,7732.4156000000002,W,0.09,229.39,130512,,,A*78
$GPGGA,000459.602,3858.9425600000001,N,7732.4151800000004,W,1,6,1.37,113.3,M,-33.4,M,,*6E
$GPRMC,000459.602,A,3858.9425600000001,N,7732.4151800000004,W,0.09,229.39,130512,,,A*78
$GPGGA,000459.695,3858.9436999999998,N,7732.4146999999999,W,1,6,1.37,113.3,M,-33.4,M,,*6E
$GPRMC,000459.695,A,3858.9436999999998,N,7732.4146999999999,W,0.09,229.39,130512,,,A*78
$GPGGA,000459.797,3858.9446000000001,N,7732.4137999999996,W,1,6,1.37,113.3,M,-33.4,M,,*6E
$GPRMC,000459.797,A,3858.9446000000001,N,7732.4137999999996,W,0.09,229.39,130512,,,A*78
$GPGGA,000459.906,3858.9458,N,7732.4129000000002,W,1,6,1.37,113.3,M,-33.4,M,,*6E
$GPRMC,000459.906,A,3858.9458,N,7732.4129000000002,W,0.09,229.39,130512,,,A*78
$GPGGA,000500.000,3858.9469400000002,N,7732.4124199999997,W,1,6,1.37,113.3,M,-33.4,M,,*6E
$GPRMC,000500.000,A,3858.9469400000002,N,7732.4124199999997,W,0.09,229.39,130512,,,A*78
$GPGGA,000500.094,3858.9480799999998,N,7732.4119400000001,W,1,6,1.37,113.3,M,-33.4,M,,*6E
$GPRMC,000500.094,A,3858.9480799999998,N,7732.4119400000001,W,0.09,229.39,130512,,,A*78
$GPGGA,000500.203,3858.9492199999999,N,7732.4115200000003,W,1,6,1.37,113.3,M,-33.4,M,,*6E
$GPRMC,000500.203,A,3858.9492199999999,N,7732.4115200000003,W,0.09,229.39,130512,,,A*78
$GPGGA,000500.305,3858.9501199999998,N,7732.4105600000001,W,1,6,1.37,113.3,M,-33.4,M,,*6E
$GPRMC,000500.305,A,3858.9501199999998,N,7732.4105600000001,W,0.09,229.39,130512,,,A*78
$GPGGA,000500.398,3858.9512599999999,N,7732.4101400000004,W,1,6,1.37,113.3,M,-33.4,M,,*6E
$GPRMC,000500.398,A,3858.9512599999999,N,7732.4101400000004,W,0.09,229.39,130512,,,A*78
$GPGGA,000500.492,3858.9524,N,7732.4096599999999,W,1,6,1.37,113.3,M,-33.4,M,,*6E
$GPRMC,000500.492,A,3858.9524,N,7732.4096599999999,W,0.09,229.39,130512,,,A*78
$GPGGA,000500.602,3858.9532999999999,N,7732.4087599999996,W,1,6,1.37,113.3,M,-33.4,M,,*6E
$GPRMC,000500.602,A,3858.9532999999999,N,7732.4087599999996,W,0.09,229.39,130512,,,A*78
$GPGGA,000500.703,3858.95444,N,7732.4082799999999,W,1,6,1.37,113.3,M,-33.4,M,,*6E
$GPRMC,000500.703,A,3858.95444,N,7732.4082799999999,W,0.09,229.39,130512,,,A*78
$GPGGA,000500.797,3858.9556399999999,N,7732.4078600000001,W,1,6,1.37,113.3,M,-33.4,M,,*6E
$GPRMC,000500.797,A,3858.9556399999999,N,7732.4078600000001,W,0.09,229.39,130512,,,A*78
$GPGGA,000500.898,3858.9565399999998,N,7732.4069,W,1,6,1.37,113.3,M,-33.4,M,,*6E
$GPRMC,000500.898,A,3858.9565399999998,N,7732.4069,W,0.09,229.39,130512,,,A*78
$GPGGA,000501.000,3858.9576799999999,N,7732.4064800000002,W,1,6,1.37,113.3,M,-33.4,M,,*6E
$GPRMC,000501.000,A,3858.9576799999999,N,7732.4064800000002,W,0.09,229.39,130512,,,A*78
$GPGGA,000501.102,3858.95882,N,7732.4059999999997,W,1,6,1.37,113.3,M,-33.4,M,,*6E
$GPRMC,000501.102,A,3858.95882,N,7732.4059999999997,W,0.09,229.39,130512,,,A*78
$GPGGA,000501.203,3858.9599600000001,N,7732.4051000000003,W,1,6,1.37,113.3,M,-33.4,M,,*6E
$GPRMC,000501.203,A,3858.9599600000001,N,7732.4051000000003,W,0.09,229.39,130512,,,A*78
$GPGGA,000501.297,3858.9610999999998,N,7732.4046199999998,W,1,6,1.37,113.3,M,-33.4,M,,*6E
$GPRMC,000501.297,A,3858.9610999999998,N,7732.4046199999998,W,0.09,229.39,130512,,,A*78
$GPGGA,000501.398,3858.9622399999999,N,7732.4037200000004,W,1,6,1.37,113.3,M,-33.4,M,,*6E
$GPRMC,000501.398,A,3858.9622399999999,N,7732.4037200000004,W,0.09,229.39,130512,,,A*78
$GPGGA,000501.508,3858.9631400000002,N,7732.4032399999999,W,1,6,1.37,113.3,M,-33.4,M,,*6E
$GPRMC,000501.508,A,3858.9631400000002,N,7732.4032399999999,W,0.09,229.39,130512,,,A*78
$GPGGA,000501.602,3858.9642799999999,N,7732.4023399999996,W,1,6,1.37,113.3,M,-33.4,M,,*6E
$GPRMC,000501.602,A,3858.9642799999999,N,7732.4023399999996,W,0.09,229.39,130512,,,A*78
$GPGGA,000501.695,3858.9654799999998,N,7732.4018599999999,W,1,6,1.37,113.3,M,-33.4,M,,*6E
$GPRMC,000501.695,A,3858.9654799999998,N,7732.4018599999999,W,0.09,229.39,130512,,,A*78
$GPGGA,000501.797,3858.9666199999999,N,7732.4014400000002,W,1,6,1.37,113.3,M,-33.4,M,,*6E
$GPRMC,000501.797,A,3858.9666199999999,N,7732.4014400000002,W,0.09,229.39,130512,,,A*78
$GPGGA,000501.906,3858.9675200000002,N,7732.4005399999999,W,1,6,1.37,113.3,M,-33.4,M,,*6E
$GPRMC,000501.906,A,3858.9675200000002,N,7732.4005399999999,W,0.09,229.39,130512,,,A*78
$GPGGA,000502.000,3858.9686599999999,N,7732.4000600000002,W,1,6,1.37,113.3,M,-33.4,M,,*6E
$GPRMC,000502.000,A,3858.9686599999999,N,7732.4000600000002,W,0.09,229.39,130512,,,A*78
$GPGGA,000502.094,3858.9698,N,7732.3991599999999,W,1,6,1.37,113.3,M,-33.4,M,,*6E
$GPRMC,000502.094,A,3858.9698,N,7732.3991599999999,W,0.09,229.39,130512,,,A*78
$GPGGA,000502.203,3858.9706999999999,N,7732.3986800000003,W,1,6,1.37,113.3,M,-33.4,M,,*6E
$GPRMC,000502.203,A,3858.9706999999999,N,7732.3986800000003,W,0.09,229.39,130512,,,A*78
$GPGGA,000502.305,3858.97184,N,7732.39778,W,1,6,1.37,113.3,M,-33.4,M,,*6E
$GPRMC,000502.305,A,3858.97184,N,7732.39778,W,0.09,229.39,130512,,,A*78
$GPGGA,000502.398,3858.9728000000001,N,7732.3973000000004,W,1,6,1.37,113.3,M,-33.4,M,,*6E
$GPRMC,000502.398,A,3858.9728000000001,N,7732.3973000000004,W,0.09,229.39,130512,,,A*78
$GPGGA,000502.492,3858.9739400000002,N,7732.3964000000001,W,1,6,1.37,113.3,M,-33.4,M,,*6E
$GPRMC,000502.492,A,3858.9739400000002,N,7732.3964000000001,W,0.09,229.39,130512,,,A*78
$GPGGA,000502.602,3858.9748400000001,N,7732.3959199999996,W,1,6,1.37,113.3,M,-33.4,M,,*6E
$GPRMC,000502.602,A,3858.9748400000001,N,7732.3959199999996,W,0.09,229.39,130512,,,A*78
$GPGGA,000502.703,3858.9757399999999,N,7732.3950200000002,W,1,6,1.37,113.3,M,-33.4,M,,*6E
$GPRMC,000502.703,A,3858.9757399999999,N,7732.3950200000002,W,0.09,229.39,130512,,,A*78
$GPGGA,000502.797,3858.97688,N,7732.3945399999997,W,1,6,1.37,113.3,M,-33.4,M,,*6E
$GPRMC,000502.797,A,3858.97688,N,7732.3945399999997,W,0.09,229.39,130512,,,A*78
$GPGGA,000502.898,3858.9778400000002,N,7732.3936400000002,W,1,6,1.37,113.3,M,-33.4,M,,*6E
$GPRMC,000502.898,A,3858.9778400000002,N,7732.3936400000002,W,0.09,229.39,130512,,,A*78
$GPGGA,000503.000,3858.97874,N,7732.3927399999999,W,1,6,1.37,113.3,M,-33.4,M,,*6E
$GPRMC,000503.000,A,3858.97874,N,7732.3927399999999,W,0.09,229.39,130512,,,A*78
$GPGGA,000503.102,3858.9796399999999,N,7732.3922600000003,W,1,6,1.37,113.3,M,-33.4,M,,*6E
$GPRMC,000503.102,A,3858.9796399999999,N,7732.3922600000003,W,0.09,229.39,130512,,,A*78
$GPGGA,000503.203,3858.9805400000002,N,7732.39136,W,1,6,1.37,113.3,M,-33.4,M,,*6E
$GPRMC,000503.203,A,3858.9805400000002,N,7732.39136,W,0.09,229.39,130512,,,A*78
$GPGGA,000503.219,3858.98078,N,7732.39136,W,1,6,1.37,113.3,M,-33.4,M,,*6E
$GPRMC,000503.219,A,3858.98078,N,7732.39136,W,0.09,229.39,130512,,,A*78
$GPGGA,000503.297,3858.9814999999999,N,7732.3908800000004,W,1,6,1.37,113.3,M,-33.4,M,,*6E
$GPRMC,000503.297,A,3858.9814999999999,N,7732.3908800000004,W,0.09,229.39,130512,,,A*78
$GPGGA,000503.398,3858.9824000000002,N,7732.3899800000001,W,1,6,1.37,113.3,M,-33.4,M,,*6E
$GPRMC,000503.398,A,3858.9824000000002,N,7732.3899800000001,W,0.09,229.39,130512,,,A*78
$GPGGA,000503.508,3858.9833,N,7732.3894999999996,W,1,6,1.37,113.3,M,-33.4,M,,*6E
$GPRMC,000503.508,A,3858.9833,N,7732.3894999999996,W,0.09,229.39,130512,,,A*78
$GPGGA,000503.602,3858.9841999999999,N,7732.3886000000002,W,1,6,1.37,113.3,M,-33.4,M,,*6E
$GPRMC,000503.602,A,3858.9841999999999,N,7732.3886000000002,W,0.09,229.39,130512,,,A*78
$GPGGA,000503.695,3858.98516,N,7732.3876999999999,W,1,6,1.37,113.3,M,-33.4,M,,*6E
$GPRMC,000503.695,A,3858.98516,N,7732.3876999999999,W,0.09,229.39,130512,,,A*78
$GPGGA,000503.797,3858.98582,N,7732.3872200000002,W,1,6,1.37,113.3,M,-33.4,M,,*6E
$GPRMC,000503.797,A,3858.98582,N,7732.3872200000002,W,0.09,229.39,130512,,,A*78
$GPGGA,000503.906,3858.9867199999999,N,7732.3867999999996,W,1,6,1.37,113.3,M,-33.4,M,,*6E
$GPRMC,000503.906,A,3858.9867199999999,N,7732.3867999999996,W,0.09,229.39,130512,,,A*78
$GPGGA,000504.000,3858.98768,N,7732.3858400000003,W,1,6,1.37,113.3,M,-33.4,M,,*6E
$GPRMC,000504.000,A,3858.98768,N,7732.3858400000003,W,0.09,229.39,130512,,,A*78
$GPGGA,000504.094,3858.9885799999999,N,7732.3854199999997,W,1,6,1.37,113.3,M,-33.4,M,,*6E
$GPRMC,000504.094,A,3858.9885799999999,N,7732.3854199999997,W,0.09,229.39,130512,,,A*78
$GPGGA,000504.203,3858.9894800000002,N,7732.3845200000002,W,1,6,1.37,113.3,M,-33.4,M,,*6E
$GPRMC,000504.203,A,3858.9894800000002,N,7732.3845200000002,W,0.09,229.39,130512,,,A*78
$GPGGA,000504.305,3858.9902000000001,N,7732.3840399999997,W,1,6,1.37,113.3,M,-33.4,M,,*6E
$GPRMC,000504.305,A,3858.9902000000001,N,7732.3840399999997,W,0.09,229.39,130512,,,A*78
$GPGGA,000504.398,3858.9910999999999,N,7732.3831400000003,W,1,6,1.37,113.3,M,-33.4,M,,*6E
$GPRMC,000504.398,A,3858.9910999999999,N,7732.3831400000003,W,0.09,229.39,130512,,,A*78
$GPGGA,000504.492,3858.9919999999998,N,7732.3826599999998,W,1,6,1.37,113.3,M,-33.4,M,,*6E
$GPRMC,000504.492,A,3858.9919999999998,N,7732.3826599999998,W,0.09,229.39,130512,,,A*78
$GPGGA,000504.602,3858.9927200000001,N,7732.3821800000002,W,1,6,1.37,113.3,M,-33.4,M,,*6E
$GPRMC,000504.602,A,3858.9927200000001,N,7732.3821800000002,W,0.09,229.39,130512,,,A*78
$GPGGA,000504.703,3858.99362,N,7732.3812799999999,W,1,6,1.37,113.3,M,-33.4,M,,*6E
$GPRMC,000504.703,A,3858.99362,N,7732.3812799999999,W,0.09,229.39,130512,,,A*78
$GPGGA,000504.797,3858.9945199999998,N,7732.3808000000002,W,1,6,1.37,113.3,M,-33.4,M,,*6E
$GPRMC,000504.797,A,3858.9945199999998,N,7732.3808000000002,W,0.09,229.39,130512,,,A*78
$GPGGA,000504.898,3858.9951799999999,N,7732.3803799999996,W,1,6,1.37,113.3,M,-33.4,M,,*6E
$GPRMC,000504.898,A,3858.9951799999999,N,7732.3803799999996,W,0.09,229.39,130512,,,A*78
$GPGGA,000505.000,3858.99614,N,7732.3794800000002,W,1,6,1.37,113.3,M,-33.4,M,,*6E
$GPRMC,000505.000,A,3858.99614,N,7732.3794800000002,W,0.09,229.39,130512,,,A*78
$GPGGA,000505.102,3858.9968,N,7732.3789999999997,W,1,6,1.37,113.3,M,-33.4,M,,*6E
$GPRMC,000505.102,A,3858.9968,N,7732.3789999999997,W,0.09,229.39,130512,,,A*78
$GPGGA,000505.203,3858.9976999999999,N,7732.37852,W,1,6,1.37,113.3,M,-33.4,M,,*6E
$GPRMC,000505.203,A,3858.9976999999999,N,7732.37852,W,0.09,229.39,130512,,,A*78
$GPGGA,000505.297,3858.9984200000002,N,7732.3776199999998,W,1,6,1.37,113.3,M,-33.4,M,,*6E
$GPRMC,000505.297,A,3858.9984200000002,N,7732.3776199999998,W,0.09,229.39,130512,,,A*78
$GPGGA,000505.398,3858.9990799999998,N,7732.3771400000001,W,1,6,1.37,113.3,M,-33.4,M,,*6E
$GPRMC,000505.398,A,3858.9990799999998,N,7732.3771400000001,W,0.09,229.39,130512,,,A*78
$GPGGA,000505.508,3859.00004,N,7732.3767200000003,W,1,6,1.37,113.3,M,-33.4,M,,*6E
$GPRMC,000505.508,A,3859.00004,N,7732.3767200000003,W,0.09,229.39,130512,,,A*78
$GPGGA,000505.602,3859.0007,N,7732.3762399999998,W,1,6,1.37,113.3,M,-33.4,M,,*6E
$GPRMC,000505.602,A,3859.0007,N,7732.3762399999998,W,0.09,229.39,130512,,,A*78
$GPGGA,000505.695,3859.00136,N,7732.37582,W,1,6,1.37,113.3,M,-33.4,M,,*6E
$GPRMC,000505.695,A,3859.00136,N,7732.37582,W,0.09,229.39,130512,,,A*78
$GPGGA,000505.797,3859.0023200000002,N,7732.3748599999999,W,1,6,1.37,113.3,M,-33.4,M,,*6E
$GPRMC,000505.797,A,3859.0023200000002,N,7732.3748599999999,W,0.09,229.39,130512,,,A*78
$GPGGA,000505.906,3859.0029800000002,N,7732.3744400000001,W,1,6,1.37,113.3,M,-33.4,M,,*6E
$GPRMC,000505.906,A,3859.0029800000002,N,7732.3744400000001,W,0.09,229.39,130512,,,A*78
$GPGGA,000506.000,3859.0037000000001,N,7732.3739599999996,W,1,6,1.37,113.3,M,-33.4,M,,*6E
$GPRMC,000506.000,A,3859.0037000000001,N,7732.3739599999996,W,0.09,229.39,130512,,,A*78
$GPGGA,000506.094,3859.0043600000001,N,7732.37348,W,1,6,1.37,113.3,M,-33.4,M,,*6E
$GPRMC,000506.094,A,3859.0043600000001,N,7732.37348,W,0.09,229.39,130512,,,A*78
$GPGGA,000506.203,3859.00508,N,7732.3730600000002,W,1,6,1.37,113.3,M,-33.4,M,,*6E
$GPRMC,000506.203,A,3859.00508,N,7732.3730600000002,W,0.09,229.39,130512,,,A*78
$GPGGA,000506.305,3859.0057400000001,N,7732.3725799999997,W,1,6,1.37,113.3,M,-33.4,M,,*6E
$GPRMC,000506.305,A,3859.0057400000001,N,7732.3725799999997,W,0.09,229.39,130512,,,A*78
$GPGGA,000506.398,3859.0062200000001,N,7732.3721599999999,W,1,6,1.37,113.3,M,-33.4,M,,*6E
$GPRMC,000506.398,A,3859.0062200000001,N,7732.3721599999999,W,0.09,229.39,130512,,,A*78
$GPGGA,000506.492,3859.0068800000002,N,7732.3716800000003,W,1,6,1.37,113.3,M,-33.4,M,,*6E
$GPRMC,000506.492,A,3859.0068800000002,N,7732.3716800000003,W,0.09,229.39,130512,,,A*78
$GPGGA,000506.602,3859.0075400000002,N,7732.3711999999998,W,1,6,1.37,113.3,M,-33.4,M,,*6E
$GPRMC,000506.602,A,3859.0075400000002,N,7732.3711999999998,W,0.09,229.39,130512,,,A*78
$GPGGA,000506.703,3859.0082600000001,N,7732.37078,W,1,6,1.37,113.3,M,-33.4,M,,*6E
$GPRMC,000506.703,A,3859.0082600000001,N,7732.37078,W,0.09,229.39,130512,,,A*78
$GPGGA,000506.797,3859.0087400000002,N,7732.3703000000003,W,1,6,1.37,113.3,M,-33.4,M,,*6E
$GPRMC,000506.797,A,3859.0087400000002,N,7732.3703000000003,W,0.09,229.39,130512,,,A*78
$GPGGA,000506.898,3859.0094000000002,N,7732.3698199999998,W,1,6,1.37,113.3,M,-33.4,M,,*6E
$GPRMC,000506.898,A,3859.0094000000002,N,7732.3698199999998,W,0.09,229.39,130512,,,A*78
$GPGGA,000507.000,3859.0098799999998,N,7732.3694,W,1,6,1.37,113.3,M,-33.4,M,,*6E
$GPRMC,000507.000,A,3859.0098799999998,N,7732.3694,W,0.09,229.39,130512,,,A*78
$GPGGA,000507.102,3859.0103000000001,N,7732.3694,W,1,6,1.37,113.3,M,-33.4,M,,*6E
$GPRMC,000507.102,A,3859.0103000000001,N,7732.3694,W,0.09,229.39,130512,,,A*78
$GPGGA,000507.203,3859.0110199999999,N,7732.3689200000004,W,1,6,1.37,113.3,M,-33.4,M,,*6E
$GPRMC,000507.203,A,3859.0110199999999,N,7732.3689200000004,W,0.09,229.39,130512,,,A*78
$GPGGA,000507.297,3859.0114400000002,N,7732.3684399999999,W,1,6,1.37,113.3,M,-33.4,M,,*6E
$GPRMC,000507.297,A,3859.0114400000002,N,7732.3684399999999,W,0.09,229.39,130512,,,A*78
$GPGGA,000507.398,3859.0119199999998,N,7732.3680200000001,W,1,6,1.37,113.3,M,-33.4,M,,*6E
$GPRMC,000507.398,A,3859.0119199999998,N,7732.3680200000001,W,0.09,229.39,130512,,,A*78
$GPGGA,000507.508,3859.0123999999999,N,7732.3675399999996,W,1,6,1.37,113.3,M,-33.4,M,,*6E
$GPRMC,000507.508,A,3859.0123999999999,N,7732.3675399999996,W,0.09,229.39,130512,,,A*78
$GPGGA,000507.602,3859.0125799999998,N,7732.3671199999998,W,1,6,1.37,113.3,M,-33.4,M,,*6E
$GPRMC,000507.602,A,3859.0125799999998,N,7732.3671199999998,W,0.09,229.39,130512,,,A*78
$GPGGA,000507.695,3859.0130599999999,N,7732.3671199999998,W,1,6,1.37,113.3,M,-33.4,M,,*6E
$GPRMC,000507.695,A,3859.0130599999999,N,7732.3671199999998,W,0.09,229.39,130512,,,A*78
$GPGGA,000507.797,3859.01354,N,7732.3666400000002,W,1,6,1.37,113.3,M,-33.4,M,,*6E
$GPRMC,000507.797,A,3859.01354,N,7732.3666400000002,W,0.09,229.39,130512,,,A*78
$GPGGA,000507.906,3859.0142,N,7732.3661599999997,W,1,6,1.37,113.3,M,-33.4,M,,*6E
$GPRMC,000507.906,A,3859.0142,N,7732.3661599999997,W,0.09,229.39,130512,,,A*78
$GPGGA,000508.000,3859.0144399999998,N,7732.3657399999999,W,1,6,1.37,113.3,M,-33.4,M,,*6E
$GPRMC,000508.000,A,3859.0144399999998,N,7732.3657399999999,W,0.09,229.39,130512,,,A*78
$GPGGA,000508.094,3859.0149199999999,N,7732.3657399999999,W,1,6,1.37,113.3,M,-33.4,M,,*6E
$GPRMC,000508.094,A,3859.0149199999999,N,7732.3657399999999,W,0.09,229.39,130512,,,A*78
$GPGGA,000508.203,3859.0155799999999,N,7732.3652600000003,W,1,6,1.37,113.3,M,-33.4,M,,*6E
$GPRMC,000508.203,A,3859.0155799999999,N,7732.3652600000003,W,0.09,229.39,130512,,,A*78
$GPGGA,000508.305,3859.0158200000002,N,7732.3652600000003,W,1,6,1.37,113.3,M,-33.4,M,,*6E
$GPRMC,000508.305,A,3859.0158200000002,N,7732.3652600000003,W,0.09,229.39,130512,,,A*78
$GPGGA,000508.398,3859.0164799999998,N,7732.3647799999998,W,1,6,1.37,113.3,M,-33.4,M,,*6E
$GPRMC,000508.398,A,3859.0164799999998,N,7732.3647799999998,W,0.09,229.39,130512,,,A*78
$GPGGA,000508.492,3859.0169599999999,N,7732.3647799999998,W,1,6,1.37,113.3,M,-33.4,M,,*6E
$GPRMC,000508.492,A,3859.0169599999999,N,7732.3647799999998,W,0.09,229.39,130512,,,A*78
$GPGGA,000508.602,3859.0174399999999,N,7732.3647799999998,W,1,6,1.37,113.3,M,-33.4,M,,*6E
$GPRMC,000508.602,A,3859.0174399999999,N,7732.3647799999998,W,0.09,229.39,130512,,,A*78
$GPGGA,000508.703,3859.0178600000002,N,7732.3647799999998,W,1,6,1.37,113.3,M,-33.4,M,,*6E
$GPRMC,000508.703,A,3859.0178600000002,N,7732.3647799999998,W,0.09,229.39,130512,,,A*78
$GPGGA,000508.797,3859.0181,N,7732.3647799999998,W,1,6,1.37,113.3,M,-33.4,M,,*6E
$GPRMC,000508.797,A,3859.0181,N,7732.3647799999998,W,0.09,229.39,130512,,,A*78
$GPGGA,000508.898,3859.01876,N,7732.3647799999998,W,1,6,1.37,113.3,M,-33.4,M,,*6E
$GPRMC,000508.898,A,3859.01876,N,7732.3647799999998,W,0.09,229.39,130512,,,A*78
$GPGGA,000509.000,3859.0192400000001,N,7732.3647799999998,W,1,6,1.37,113.3,M,-33.4,M,,*6E
$GPRMC,000509.000,A,3859.0192400000001,N,7732.3647799999998,W,0.09,229.39,130512,,,A*78
$GPGGA,000509.102,3859.0197200000001,N,7732.3652600000003,W,1,6,1.37,113.3,M,-33.4,M,,*6E
$GPRMC,000509.102,A,3859.0197200000001,N,7732.3652600000003,W,0.09,229.39,130512,,,A*78
$GPGGA,000509.203,3859.0201399999999,N,7732.3652600000003,W,1,6,1.37,113.3,M,-33.4,M,,*6E
$GPRMC,000509.203,A,3859.0201399999999,N,7732.3652600000003,W,0.09,229.39,130512,,,A*78
$GPGGA,000509.297,3859.02062,N,7732.3657399999999,W,1,6,1.37,113.3,M,-33.4,M,,*6E
$GPRMC,000509.297,A,3859.02062,N,7732.3657399999999,W,0.09,229.39,130512,,,A*78
$GPGGA,000509.398,3859.0208599999998,N,7732.3657399999999,W,1,6,1.37,113.3,M,-33.4,M,,*6E
$GPRMC,000509.398,A,3859.0208599999998,N,7732.3657399999999,W,0.09,229.39,130512,,,A*78
$GPGGA,000509.508,3859.02128,N,7732.3661599999997,W,1,6,1.37,113.3,M,-33.4,M,,*6E
$GPRMC,000509.508,A,3859.02128,N,7732.3661599999997,W,0.09,229.39,130512,,,A*78
$GPGGA,000509.602,3859.02128,N,7732.3666400000002,W,1,6,1.37,113.3,M,-33.4,M,,*6E
$GPRMC,000509.602,A,3859.02128,N,7732.3666400000002,W,0.09,229.39,130512,,,A*78
$GPGGA,000509.695,3859.0215199999999,N,7732.3671199999998,W,1,6,1.37,113.3,M,-33.4,M,,*6E
$GPRMC,000509.695,A,3859.0215199999999,N,7732.3671199999998,W,0.09,229.39,130512,,,A*78
$GPGGA,000509.797,3859.0217600000001,N,7732.3675399999996,W,1,6,1.37,113.3,M,-33.4,M,,*6E
$GPRMC,000509.797,A,3859.0217600000001,N,7732.3675399999996,W,0.09,229.39,130512,,,A*78
$GPGGA,000509.906,3859.0217600000001,N,7732.3680200000001,W,1,6,1.37,113.3,M,-33.4,M,,*6E
$GPRMC,000509.906,A,3859.0217600000001,N,7732.3680200000001,W,0.09,229.39,130512,,,A*78
$GPGGA,000510.000,3859.0219999999999,N,7732.3684399999999,W,1,6,1.37,113.3,M,-33.4,M,,*6E
$GPRMC,000510.000,A,3859.0219999999999,N,7732.3684399999999,W,0.09,229.39,130512,,,A*78
$GPGGA,000510.094,3859.0219999999999,N,7732.3689200000004,W,1,6,1.37,113.3,M,-33.4,M,,*6E
$GPRMC,000510.094,A,3859.0219999999999,N,7732.3689200000004,W,0.09,229.39,130512,,,A*78
$GPGGA,000510.203,3859.0217600000001,N,7732.3694,W,1,6,1.37,113.3,M,-33.4,M,,*6E
$GPRMC,000510.203,A,3859.0217600000001,N,7732.3694,W,0.09,229.39,130512,,,A*78
$GPGGA,000510.305,3859.0217600000001,N,7732.3703000000003,W,1,6,1.37,113.3,M,-33.4,M,,*6E
$GPRMC,000510.305,A,3859.0217600000001,N,7732.3703000000003,W,0.09,229.39,130512,,,A*78
$GPGGA,000510.398,3859.0215199999999,N,7732.37078,W,1,6,1.37,113.3,M,-33.4,M,,*6E
$GPRMC,000510.398,A,3859.0215199999999,N,7732.37078,W,0.09,229.39,130512,,,A*78
$GPGGA,000510.492,3859.0215199999999,N,7732.3711999999998,W,1,6,1.37,113.3,M,-33.4,M,,*6E
$GPRMC,000510.492,A,3859.0215199999999,N,7732.3711999999998,W,0.09,229.39,130512,,,A*78
$GPGGA,000510.602,3859.02128,N,7732.3716800000003,W,1,6,1.37,113.3,M,-33.4,M,,*6E
$GPRMC,000510.602,A,3859.02128,N,7732.3716800000003,W,0.09,229.39,130512,,,A*78
$GPGGA,000510.703,3859.0211000000001,N,7732.3725799999997,W,1,6,1.37,113.3,M,-33.4,M,,*6E
$GPRMC,000510.703,A,3859.0211000000001,N,7732.3725799999997,W,0.09,229.39,130512,,,A*78
$GPGGA,000510.797,3859.0208599999998,N,7732.3730600000002,W,1,6,1.37,113.3,M,-33.4,M,,*6E
$GPRMC,000510.797,A,3859.0208599999998,N,7732.3730600000002,W,0.09,229.39,130512,,,A*78
$GPGGA,000510.898,3859.0203800000002,N,7732.37348,W,1,6,1.37,113.3,M,-33.4,M,,*6E
$GPRMC,000510.898,A,3859.0203800000002,N,7732.37348,W,0.09,229.39,130512,,,A*78
$GPGGA,000511.000,3859.0201399999999,N,7732.3739599999996,W,1,6,1.37,113.3,M,-33.4,M,,*6E
$GPRMC,000511.000,A,3859.0201399999999,N,7732.3739599999996,W,0.09,229.39,130512,,,A*78
$GPGGA,000511.102,3859.0197200000001,N,7732.3744400000001,W,1,6,1.37,113.3,M,-33.4,M,,*6E
$GPRMC,000511.102,A,3859.0197200000001,N,7732.3744400000001,W,0.09,229.39,130512,,,A*78
$GPGGA,000511.203,3859.0192400000001,N,7732.3748599999999,W,1,6,1.37,113.3,M,-33.4,M,,*6E
$GPRMC,000511.203,A,3859.0192400000001,N,7732.3748599999999,W,0.09,229.39,130512,,,A*78
$GPGGA,000511.297,3859.01876,N,7732.3753400000004,W,1,6,1.37,113.3,M,-33.4,M,,*6E
$GPRMC,000511.297,A,3859.01876,N,7732.3753400000004,W,0.09,229.39,130512,,,A*78
$GPGGA,000511.398,3859.0183399999998,N,7732.37582,W,1,6,1.37,113.3,M,-33.4,M,,*6E
$GPRMC,000511.398,A,3859.0183399999998,N,7732.37582,W,0.09,229.39,130512,,,A*78
$GPGGA,000511.508,3859.0178600000002,N,7732.3762399999998,W,1,6,1.37,113.3,M,-33.4,M,,*6E
$GPRMC,000511.508,A,3859.0178600000002,N,7732.3762399999998,W,0.09,229.39,130512,,,A*78
$GPGGA,000511.602,3859.0174399999999,N,7732.3767200000003,W,1,6,1.37,113.3,M,-33.4,M,,*6E
$GPRMC,000511.602,A,3859.0174399999999,N,7732.3767200000003,W,0.09,229.39,130512,,,A*78
$GPGGA,000511.695,3859.01672,N,7732.3771400000001,W,1,6,1.37,113.3,M,-33.4,M,,*6E
$GPRMC,000511.695,A,3859.01672,N,7732.3771400000001,W,0.09,229.39,130512,,,A*78
$GPGGA,000511.797,3859.01624,N,7732.3776199999998,W,1,6,1.37,113.3,M,-33.4,M,,*6E
$GPRMC,000511.797,A,3859.01624,N,7732.3776199999998,W,0.09,229.39,130512,,,A*78
$GPGGA,000511.906,3859.0155799999999,N,7732.3781000000002,W,1,6,1.37,113.3,M,-33.4,M,,*6E
$GPRMC,000511.906,A,3859.0155799999999,N,7732.3781000000002,W,0.09,229.39,130512,,,A*78
$GPGGA,000512.000,3859.0146800000001,N,7732.37852,W,1,6,1.37,113.3,M,-33.4,M,,*6E
$GPRMC,000512.000,A,3859.0146800000001,N,7732.37852,W,0.09,229.39,130512,,,A*78
$GPGGA,000512.094,3859.01354,N,7732.3789999999997,W,1,6,1.37,113.3,M,-33.4,M,,*6E
$GPRMC,000512.094,A,3859.01354,N,7732.3789999999997,W,0.09,229.39,130512,,,A*78
$GPGGA,000512.203,3859.0128200000001,N,7732.3794800000002,W,1,6,1.37,113.3,M,-33.4,M,,*6E
$GPRMC,000512.203,A,3859.0128200000001,N,7732.3794800000002,W,0.09,229.39,130512,,,A*78
$GPGGA,000512.305,3859.0121600000001,N,7732.3799,W,1,6,1.37,113.3,M,-33.4,M,,*6E
$GPRMC,000512.305,A,3859.0121600000001,N,7732.3799,W,0.09,229.39,130512,,,A*78
$GPGGA,000512.398,3859.0114400000002,N,7732.3803799999996,W,1,6,1.37,113.3,M,-33.4,M,,*6E
$GPRMC,000512.398,A,3859.0114400000002,N,7732.3803799999996,W,0.09,229.39,130512,,,A*78
$GPGGA,000512.492,3859.0107800000001,N,7732.3808000000002,W,1,6,1.37,113.3,M,-33.4,M,,*6E
$GPRMC,000512.492,A,3859.0107800000001,N,7732.3808000000002,W,0.09,229.39,130512,,,A*78
$GPGGA,000512.602,3859.0100599999998,N,7732.3812799999999,W,1,6,1.37,113.3,M,-33.4,M,,*6E
$GPRMC,000512.602,A,3859.0100599999998,N,7732.3812799999999,W,0.09,229.39,130512,,,A*78
$GPGGA,000512.703,3859.0094000000002,N,7732.3817600000004,W,1,6,1.37,113.3,M,-33.4,M,,*6E
$GPRMC,000512.703,A,3859.0094000000002,N,7732.3817600000004,W,0.09,229.39,130512,,,A*78
$GPGGA,000512.797,3859.0087400000002,N,7732.3826599999998,W,1,6,1.37,113.3,M,-33.4,M,,*6E
$GPRMC,000512.797,A,3859.0087400000002,N,7732.3826599999998,W,0.09,229.39,130512,,,A*78
$GPGGA,000512.898,3859.00778,N,7732.3831400000003,W,1,6,1.37,113.3,M,-33.4,M,,*6E
$GPRMC,000512.898,A,3859.00778,N,7732.3831400000003,W,0.09,229.39,130512,,,A*78
$GPGGA,000513.000,3859.00712,N,7732.3835600000001,W,1,6,1.37,113.3,M,-33.4,M,,*6E
$GPRMC,000513.000,A,3859.00712,N,7732.3835600000001,W,0.09,229.39,130512,,,A*78
$GPGGA,000513.102,3859.0064000000001,N,7732.3845200000002,W,1,6,1.37,113.3,M,-33.4,M,,*6E
$GPRMC,000513.102,A,3859.0064000000001,N,7732.3845200000002,W,0.09,229.39,130512,,,A*78
$GPGGA,000513.203,3859.0054999999998,N,7732.38494,W,1,6,1.37,113.3,M,-33.4,M,,*6E
$GPRMC,000513.203,A,3859.0054999999998,N,7732.38494,W,0.09,229.39,130512,,,A*78
$GPGGA,000513.297,3859.0048400000002,N,7732.3854199999997,W,1,6,1.37,113.3,M,-33.4,M,,*6E
$GPRMC,000513.297,A,3859.0048400000002,N,7732.3854199999997,W,0.09,229.39,130512,,,A*78
$GPGGA,000513.398,3859.0038800000001,N,7732.38632,W,1,6,1.37,113.3,M,-33.4,M,,*6E
$GPRMC,000513.398,A,3859.0038800000001,N,7732.38632,W,0.09,229.39,130512,,,A*78
$GPGGA,000513.508,3859.00322,N,7732.3867999999996,W,1,6,1.37,113.3,M,-33.4,M,,*6E
$GPRMC,000513.508,A,3859.00322,N,7732.3867999999996,W,0.09,229.39,130512,,,A*78
$GPGGA,000513.602,3859.0023200000002,N,7732.3876999999999,W,1,6,1.37,113.3,M,-33.4,M,,*6E
$GPRMC,000513.602,A,3859.0023200000002,N,7732.3876999999999,W,0.09,229.39,130512,,,A*78
$GPGGA,000513.695,3859.00136,N,7732.3881800000004,W,1,6,1.37,113.3,M,-33.4,M,,*6E
$GPRMC,000513.695,A,3859.00136,N,7732.3881800000004,W,0.09,229.39,130512,,,A*78
$GPGGA,000513.797,3859.0007,N,7732.3886000000002,W,1,6,1.37,113.3,M,-33.4,M,,*6E
$GPRMC,000513.797,A,3859.0007,N,7732.3886000000002,W,0.09,229.39,130512,,,A*78
$GPGGA,000513.906,3858.9998000000001,N,7732.3894999999996,W,1,6,1.37,113.3,M,-33.4,M,,*6E
$GPRMC,000513.906,A,3858.9998000000001,N,7732.3894999999996,W,0.09,229.39,130512,,,A*78
$GPGGA,000514.000,3858.9988999999998,N,7732.3899800000001,W,1,6,1.37,113.3,M,-33.4,M,,*6E
$GPRMC,000514.000,A,3858.9988999999998,N,7732.3899800000001,W,0.09,229.39,130512,,,A*78
$GPGGA,000514.094,3858.9979400000001,N,7732.3904599999997,W,1,6,1.37,113.3,M,-33.4,M,,*6E
$GPRMC,000514.094,A,3858.9979400000001,N,7732.3904599999997,W,0.09,229.39,130512,,,A*78
$GPGGA,000514.203,3858.9970399999999,N,7732.39136,W,1,6,1.37,113.3,M,-33.4,M,,*6E
$GPRMC,000514.203,A,3858.9970399999999,N,7732.39136,W,0.09,229.39,130512,,,A*78
$GPGGA,000514.305,3858.9959000000002,N,7732.3918399999997,W,1,6,1.37,113.3,M,-33.4,M,,*6E
$GPRMC,000514.305,A,3858.9959000000002,N,7732.3918399999997,W,0.09,229.39,130512,,,A*78
$GPGGA,000514.398,3858.9951799999999,N,7732.3927399999999,W,1,6,1.37,113.3,M,-33.4,M,,*6E
$GPRMC,000514.398,A,3858.9951799999999,N,7732.3927399999999,W,0.09,229.39,130512,,,A*78
$GPGGA,000514.492,3858.9940400000002,N,7732.3931599999997,W,1,6,1.37,113.3,M,-33.4,M,,*6E
$GPRMC,000514.492,A,3858.9940400000002,N,7732.3931599999997,W,0.09,229.39,130512,,,A*78
$GPGGA,000514.602,3858.9931399999999,N,7732.3941199999999,W,1,6,1.37,113.3,M,-33.4,M,,*6E
$GPRMC,000514.602,A,3858.9931399999999,N,7732.3941199999999,W,0.09,229.39,130512,,,A*78
$GPGGA,000514.703,3858.9919999999998,N,7732.3950200000002,W,1,6,1.37,113.3,M,-33.4,M,,*6E
$GPRMC,000514.703,A,3858.9919999999998,N,7732.3950200000002,W,0.09,229.39,130512,,,A*78
$GPGGA,000514.797,3858.9910999999999,N,7732.3954999999998,W,1,6,1.37,113.3,M,-33.4,M,,*6E
$GPRMC,000514.797,A,3858.9910999999999,N,7732.3954999999998,W,0.09,229.39,130512,,,A*78
$GPGGA,000514.898,3858.9902000000001,N,7732.3964000000001,W,1,6,1.37,113.3,M,-33.4,M,,*6E
$GPRMC,000514.898,A,3858.9902000000001,N,7732.3964000000001,W,0.09,229.39,130512,,,A*78
$GPGGA,000515.000,3858.9890000000001,N,7732.3968799999997,W,1,6,1.37,113.3,M,-33.4,M,,*6E
$GPRMC,000515.000,A,3858.9890000000001,N,7732.3968799999997,W,0.09,229.39,130512,,,A*78
$GPGGA,000515.102,3858.9880999999998,N,7732.39778,W,1,6,1.37,113.3,M,-33.4,M,,*6E
$GPRMC,000515.102,A,3858.9880999999998,N,7732.39778,W,0.09,229.39,130512,,,A*78
$GPGGA,000515.203,3858.9872,N,7732.3986800000003,W,1,6,1.37,113.3,M,-33.4,M,,*6E
$GPRMC,000515.203,A,3858.9872,N,7732.3986800000003,W,0.09,229.39,130512,,,A*78
$GPGGA,000515.297,3858.9860599999999,N,7732.3995799999997,W,1,6,1.37,113.3,M,-33.4,M,,*6E
$GPRMC,000515.297,A,3858.9860599999999,N,7732.3995799999997,W,0.09,229.39,130512,,,A*78
$GPGGA,000515.398,3858.9849200000002,N,7732.4000600000002,W,1,6,1.37,113.3,M,-33.4,M,,*6E
$GPRMC,000515.398,A,3858.9849200000002,N,7732.4000600000002,W,0.09,229.39,130512,,,A*78
$GPGGA,000515.508,3858.9840199999999,N,7732.4009599999997,W,1,6,1.37,113.3,M,-33.4,M,,*6E
$GPRMC,000515.508,A,3858.9840199999999,N,7732.4009599999997,W,0.09,229.39,130512,,,A*78
$GPGGA,000515.602,3858.9828199999999,N,7732.4018599999999,W,1,6,1.37,113.3,M,-33.4,M,,*6E
$GPRMC,000515.602,A,3858.9828199999999,N,7732.4018599999999,W,0.09,229.39,130512,,,A*78
$GPGGA,000515.695,3858.9816799999998,N,7732.4028200000001,W,1,6,1.37,113.3,M,-33.4,M,,*6E
$GPRMC,000515.695,A,3858.9816799999998,N,7732.4028200000001,W,0.09,229.39,130512,,,A*78
$GPGGA,000515.797,3858.98078,N,7732.4037200000004,W,1,6,1.37,113.3,M,-33.4,M,,*6E
$GPRMC,000515.797,A,3858.98078,N,7732.4037200000004,W,0.09,229.39,130512,,,A*78
$GPGGA,000515.906,3858.9796399999999,N,7732.4046199999998,W,1,6,1.37,113.3,M,-33.4,M,,*6E
$GPRMC,000515.906,A,3858.9796399999999,N,7732.4046199999998,W,0.09,229.39,130512,,,A*78
$GPGGA,000516.000,3858.9785000000002,N,7732.4051000000003,W,1,6,1.37,113.3,M,-33.4,M,,*6E
$GPRMC,000516.000,A,3858.9785000000002,N,7732.4051000000003,W,0.09,229.39,130512,,,A*78
$GPGGA,000516.094,3858.9773600000001,N,7732.4059999999997,W,1,6,1.37,113.3,M,-33.4,M,,*6E
$GPRMC,000516.094,A,3858.9773600000001,N,7732.4059999999997,W,0.09,229.39,130512,,,A*78
$GPGGA,000516.203,3858.97622,N,7732.4069,W,1,6,1.37,113.3,M,-33.4,M,,*6E
$GPRMC,000516.203,A,3858.97622,N,7732.4069,W,0.09,229.39,130512,,,A*78
$GPGGA,000516.025,3858.9755000000001,N,7732.4073799999996,W,1,6,1.37,113.3,M,-33.4,M,,*6E
$GPRMC,000516.025,A,3858.9755000000001,N,7732.4073799999996,W,0.09,229.39,130512,,,A*78
$GPGGA,000516.305,3858.9750799999999,N,7732.4078600000001,W,1,6,1.37,113.3,M,-33.4,M,,*6E
$GPRMC,000516.305,A,3858.9750799999999,N,7732.4078600000001,W,0.09,229.39,130512,,,A*78
$GPGGA,000516.398,3858.9739400000002,N,7732.4087599999996,W,1,6,1.37,113.3,M,-33.4,M,,*6E
$GPRMC,000516.398,A,3858.9739400000002,N,7732.4087599999996,W,0.09,229.39,130512,,,A*78
$GPGGA,000516.492,3858.9728000000001,N,7732.4096599999999,W,1,6,1.37,113.3,M,-33.4,M,,*6E
$GPRMC,000516.492,A,3858.9728000000001,N,7732.4096599999999,W,0.09,229.39,130512,,,A*78
$GPGGA,000516.602,3858.97166,N,7732.4105600000001,W,1,6,1.37,113.3,M,-33.4,M,,*6E
$GPRMC,000516.602,A,3858.97166,N,7732.4105600000001,W,0.09,229.39,130512,,,A*78
$GPGGA,000516.703,3858.97046,N,7732.4110399999998,W,1,6,1.37,113.3,M,-33.4,M,,*6E
$GPRMC,000516.703,A,3858.97046,N,7732.4110399999998,W,0.09,229.39,130512,,,A*78
$GPGGA,000516.797,3858.9693199999999,N,7732.4119400000001,W,1,6,1.37,113.3,M,-33.4,M,,*6E
$GPRMC,000516.797,A,3858.9693199999999,N,7732.4119400000001,W,0.09,229.39,130512,,,A*78
$GPGGA,000516.898,3858.9681799999998,N,7732.4129000000002,W,1,6,1.37,113.3,M,-33.4,M,,*6E
$GPRMC,000516.898,A,3858.9681799999998,N,7732.4129000000002,W,0.09,229.39,130512,,,A*78
$GPGGA,000517.000,3858.9670400000001,N,7732.4137999999996,W,1,6,1.37,113.3,M,-33.4,M,,*6E
$GPRMC,000517.000,A,3858.9670400000001,N,7732.4137999999996,W,0.09,229.39,130512,,,A*78
$GPGGA,000517.102,3858.9659,N,7732.4146999999999,W,1,6,1.37,113.3,M,-33.4,M,,*6E
$GPRMC,000517.102,A,3858.9659,N,7732.4146999999999,W,0.09,229.39,130512,,,A*78
$GPGGA,000517.203,3858.9645200000001,N,7732.4156000000002,W,1,6,1.37,113.3,M,-33.4,M,,*6E
$GPRMC,000517.203,A,3858.9645200000001,N,7732.4156000000002,W,0.09,229.39,130512,,,A*78
$GPGGA,000517.297,3858.96338,N,7732.4160799999999,W,1,6,1.37,113.3,M,-33.4,M,,*6E
$GPRMC,000517.297,A,3858.96338,N,7732.4160799999999,W,0.09,229.39,130512,,,A*78
$GPGGA,000517.398,3858.9622399999999,N,7732.4169800000001,W,1,6,1.37,113.3,M,-33.4,M,,*6E
